[
  {
    "name": "Park Hackney Plaza Hotel 1",
    "description": "Park Hackney Plaza Hotel 1 is a well-loved destination in London. Guests appreciate the central location, comfortable rooms, and attentive service. Ideal for business stays, weekend breaks, and exploring the city.",
    "lat": 51.444472,
    "lng": -0.013895,
    "address": "103 Regent Street, London, United Kingdom",
    "price": 743,
    "totalReviews": 9075,
    "averageRating": 3.9
  },
  {
    "name": "Signature Islington Rooms 2",
    "description": "Signature Islington Rooms 2 is a well-loved destination in London. Guests appreciate the central location, comfortable rooms, and attentive service. Ideal for business stays, weekend breaks, and exploring the city.",
    "lat": 51.403486,
    "lng": -0.122533,
    "address": "169 King's Road, London, United Kingdom",
    "price": 1183,
    "totalReviews": 10401,
    "averageRating": 3.3
  },
  {
    "name": "Heritage Kensington Boutique Hotel 3",
    "description": "Heritage Kensington Boutique Hotel 3 is a well-loved destination in London. Guests appreciate the central location, comfortable rooms, and attentive service. Ideal for business stays, weekend breaks, and exploring the city.",
    "lat": 51.344185,
    "lng": 0.033599,
    "address": "164 High Street, London, United Kingdom",
    "price": 568,
    "totalReviews": 14509,
    "averageRating": 3.8
  },
  {
    "name": "Signature Greenwich Suites 4",
    "description": "Signature Greenwich Suites 4 is a well-loved destination in London. Guests appreciate the central location, comfortable rooms, and attentive service. Ideal for business stays, weekend breaks, and exploring the city.",
    "lat": 51.528362,
    "lng": 0.212558,
    "address": "130 King's Road, London, United Kingdom",
    "price": 1197,
    "totalReviews": 11029,
    "averageRating": 3.1
  },
  {
    "name": "Premier Bloomsbury Suites 5",
    "description": "Premier Bloomsbury Suites 5 is a well-loved destination in London. Guests appreciate the central location, comfortable rooms, and attentive service. Ideal for business stays, weekend breaks, and exploring the city.",
    "lat": 51.501481,
    "lng": -0.132304,
    "address": "73 Oxford Street, London, United Kingdom",
    "price": 68,
    "totalReviews": 2102,
    "averageRating": 2.6
  },
  {
    "name": "Elite Waterloo Boutique Hotel 6",
    "description": "Elite Waterloo Boutique Hotel 6 is a well-loved destination in London. Guests appreciate the central location, comfortable rooms, and attentive service. Ideal for business stays, weekend breaks, and exploring the city.",
    "lat": 51.434061,
    "lng": -0.483607,
    "address": "146 King's Road, London, United Kingdom",
    "price": 1004,
    "totalReviews": 12347,
    "averageRating": 4.1
  },
  {
    "name": "City Bridge Stay 7",
    "description": "City Bridge Stay 7 is a well-loved destination in London. Guests appreciate the central location, comfortable rooms, and attentive service. Ideal for business stays, weekend breaks, and exploring the city.",
    "lat": 51.563767,
    "lng": -0.351194,
    "address": "124 Park Lane, London, United Kingdom",
    "price": 204,
    "totalReviews": 9301,
    "averageRating": 4.2
  },
  {
    "name": "Elite Chelsea Resort 8",
    "description": "Elite Chelsea Resort 8 is a well-loved destination in London. Guests appreciate the central location, comfortable rooms, and attentive service. Ideal for business stays, weekend breaks, and exploring the city.",
    "lat": 51.690533,
    "lng": 0.208661,
    "address": "187 High Street, London, United Kingdom",
    "price": 92,
    "totalReviews": 4158,
    "averageRating": 3.8
  },
  {
    "name": "Crown Notting Hill Stay 9",
    "description": "Crown Notting Hill Stay 9 is a well-loved destination in London. Guests appreciate the central location, comfortable rooms, and attentive service. Ideal for business stays, weekend breaks, and exploring the city.",
    "lat": 51.581505,
    "lng": 0.087479,
    "address": "103 Oxford Street, London, United Kingdom",
    "price": 87,
    "totalReviews": 18778,
    "averageRating": 3.8
  },
  {
    "name": "Royal Kensington Stay 10",
    "description": "Royal Kensington Stay 10 is a well-loved destination in London. Guests appreciate the central location, comfortable rooms, and attentive service. Ideal for business stays, weekend breaks, and exploring the city.",
    "lat": 51.503747,
    "lng": -0.123924,
    "address": "75 Regent Street, London, United Kingdom",
    "price": 240,
    "totalReviews": 807,
    "averageRating": 2.8
  },
  {
    "name": "Signature Westminster Lodge 11",
    "description": "Signature Westminster Lodge 11 is a well-loved destination in London. Guests appreciate the central location, comfortable rooms, and attentive service. Ideal for business stays, weekend breaks, and exploring the city.",
    "lat": 51.63021,
    "lng": -0.032762,
    "address": "4 High Street, London, United Kingdom",
    "price": 676,
    "totalReviews": 10417,
    "averageRating": 3.3
  },
  {
    "name": "Park Hackney Inn 12",
    "description": "Park Hackney Inn 12 is a well-loved destination in London. Guests appreciate the central location, comfortable rooms, and attentive service. Ideal for business stays, weekend breaks, and exploring the city.",
    "lat": 51.629145,
    "lng": 0.261477,
    "address": "12 Park Lane, London, United Kingdom",
    "price": 686,
    "totalReviews": 14138,
    "averageRating": 2.2
  },
  {
    "name": "Crown Paddington Lodge 13",
    "description": "Crown Paddington Lodge 13 is a well-loved destination in London. Guests appreciate the central location, comfortable rooms, and attentive service. Ideal for business stays, weekend breaks, and exploring the city.",
    "lat": 51.388484,
    "lng": 0.277396,
    "address": "35 King's Road, London, United Kingdom",
    "price": 1085,
    "totalReviews": 11492,
    "averageRating": 3.0
  },
  {
    "name": "Signature Waterloo Lodge 14",
    "description": "Signature Waterloo Lodge 14 is a well-loved destination in London. Guests appreciate the central location, comfortable rooms, and attentive service. Ideal for business stays, weekend breaks, and exploring the city.",
    "lat": 51.62931,
    "lng": 0.229139,
    "address": "3 High Street, London, United Kingdom",
    "price": 599,
    "totalReviews": 12768,
    "averageRating": 3.4
  },
  {
    "name": "Royal Mayfair Lodge 15",
    "description": "Royal Mayfair Lodge 15 is a well-loved destination in London. Guests appreciate the central location, comfortable rooms, and attentive service. Ideal for business stays, weekend breaks, and exploring the city.",
    "lat": 51.385235,
    "lng": 0.094459,
    "address": "75 Oxford Street, London, United Kingdom",
    "price": 1102,
    "totalReviews": 2527,
    "averageRating": 4.2
  },
  {
    "name": "City Islington Palace 16",
    "description": "City Islington Palace 16 is a well-loved destination in London. Guests appreciate the central location, comfortable rooms, and attentive service. Ideal for business stays, weekend breaks, and exploring the city.",
    "lat": 51.569121,
    "lng": -0.472134,
    "address": "36 High Street, London, United Kingdom",
    "price": 1124,
    "totalReviews": 16559,
    "averageRating": 3.3
  },
  {
    "name": "Comfort Southbank Resort 17",
    "description": "Comfort Southbank Resort 17 is a well-loved destination in London. Guests appreciate the central location, comfortable rooms, and attentive service. Ideal for business stays, weekend breaks, and exploring the city.",
    "lat": 51.456933,
    "lng": -0.243844,
    "address": "168 Baker Street, London, United Kingdom",
    "price": 986,
    "totalReviews": 555,
    "averageRating": 2.7
  },
  {
    "name": "Plaza Kensington Palace 18",
    "description": "Plaza Kensington Palace 18 is a well-loved destination in London. Guests appreciate the central location, comfortable rooms, and attentive service. Ideal for business stays, weekend breaks, and exploring the city.",
    "lat": 51.60843,
    "lng": 0.18327,
    "address": "128 Regent Street, London, United Kingdom",
    "price": 374,
    "totalReviews": 18382,
    "averageRating": 3.3
  },
  {
    "name": "Crown Paddington Resort 19",
    "description": "Crown Paddington Resort 19 is a well-loved destination in London. Guests appreciate the central location, comfortable rooms, and attentive service. Ideal for business stays, weekend breaks, and exploring the city.",
    "lat": 51.32817,
    "lng": 0.261975,
    "address": "177 Baker Street, London, United Kingdom",
    "price": 875,
    "totalReviews": 16781,
    "averageRating": 4.6
  },
  {
    "name": "Grand Waterloo Hotel 20",
    "description": "Grand Waterloo Hotel 20 is a well-loved destination in London. Guests appreciate the central location, comfortable rooms, and attentive service. Ideal for business stays, weekend breaks, and exploring the city.",
    "lat": 51.637768,
    "lng": -0.156413,
    "address": "176 Oxford Street, London, United Kingdom",
    "price": 769,
    "totalReviews": 13079,
    "averageRating": 4.8
  },
  {
    "name": "Golden Hammersmith Resort 21",
    "description": "Golden Hammersmith Resort 21 is a well-loved destination in London. Guests appreciate the central location, comfortable rooms, and attentive service. Ideal for business stays, weekend breaks, and exploring the city.",
    "lat": 51.522244,
    "lng": -0.336193,
    "address": "131 Baker Street, London, United Kingdom",
    "price": 1026,
    "totalReviews": 15150,
    "averageRating": 3.2
  },
  {
    "name": "Heritage Chelsea Boutique Hotel 22",
    "description": "Heritage Chelsea Boutique Hotel 22 is a well-loved destination in London. Guests appreciate the central location, comfortable rooms, and attentive service. Ideal for business stays, weekend breaks, and exploring the city.",
    "lat": 51.538978,
    "lng": -0.213651,
    "address": "20 Baker Street, London, United Kingdom",
    "price": 229,
    "totalReviews": 17969,
    "averageRating": 4.1
  },
  {
    "name": "Central London Resort 23",
    "description": "Central London Resort 23 is a well-loved destination in London. Guests appreciate the central location, comfortable rooms, and attentive service. Ideal for business stays, weekend breaks, and exploring the city.",
    "lat": 51.330535,
    "lng": -0.293763,
    "address": "49 King's Road, London, United Kingdom",
    "price": 1125,
    "totalReviews": 12148,
    "averageRating": 2.7
  },
  {
    "name": "Crown Chelsea Plaza Hotel 24",
    "description": "Crown Chelsea Plaza Hotel 24 is a well-loved destination in London. Guests appreciate the central location, comfortable rooms, and attentive service. Ideal for business stays, weekend breaks, and exploring the city.",
    "lat": 51.453886,
    "lng": -0.459356,
    "address": "45 Piccadilly, London, United Kingdom",
    "price": 129,
    "totalReviews": 2632,
    "averageRating": 2.8
  },
  {
    "name": "Comfort Shoreditch Apartments 25",
    "description": "Comfort Shoreditch Apartments 25 is a well-loved destination in London. Guests appreciate the central location, comfortable rooms, and attentive service. Ideal for business stays, weekend breaks, and exploring the city.",
    "lat": 51.699688,
    "lng": -0.041876,
    "address": "182 King's Road, London, United Kingdom",
    "price": 506,
    "totalReviews": 532,
    "averageRating": 3.2
  },
  {
    "name": "Premier Waterloo Apartments 26",
    "description": "Premier Waterloo Apartments 26 is a well-loved destination in London. Guests appreciate the central location, comfortable rooms, and attentive service. Ideal for business stays, weekend breaks, and exploring the city.",
    "lat": 51.337254,
    "lng": -0.467341,
    "address": "61 Park Lane, London, United Kingdom",
    "price": 1113,
    "totalReviews": 16213,
    "averageRating": 2.9
  },
  {
    "name": "Central Westminster Residency 27",
    "description": "Central Westminster Residency 27 is a well-loved destination in London. Guests appreciate the central location, comfortable rooms, and attentive service. Ideal for business stays, weekend breaks, and exploring the city.",
    "lat": 51.394213,
    "lng": -0.387932,
    "address": "193 Oxford Street, London, United Kingdom",
    "price": 170,
    "totalReviews": 329,
    "averageRating": 2.3
  },
  {
    "name": "Crown Islington Suites 28",
    "description": "Crown Islington Suites 28 is a well-loved destination in London. Guests appreciate the central location, comfortable rooms, and attentive service. Ideal for business stays, weekend breaks, and exploring the city.",
    "lat": 51.429495,
    "lng": 0.240831,
    "address": "50 Park Lane, London, United Kingdom",
    "price": 974,
    "totalReviews": 15936,
    "averageRating": 2.5
  },
  {
    "name": "Crown Waterloo Lodge 29",
    "description": "Crown Waterloo Lodge 29 is a well-loved destination in London. Guests appreciate the central location, comfortable rooms, and attentive service. Ideal for business stays, weekend breaks, and exploring the city.",
    "lat": 51.658917,
    "lng": -0.305111,
    "address": "81 Park Lane, London, United Kingdom",
    "price": 1128,
    "totalReviews": 757,
    "averageRating": 4.0
  },
  {
    "name": "Urban Chelsea Plaza Hotel 30",
    "description": "Urban Chelsea Plaza Hotel 30 is a well-loved destination in London. Guests appreciate the central location, comfortable rooms, and attentive service. Ideal for business stays, weekend breaks, and exploring the city.",
    "lat": 51.414132,
    "lng": -0.157949,
    "address": "143 King's Road, London, United Kingdom",
    "price": 726,
    "totalReviews": 19842,
    "averageRating": 4.5
  },
  {
    "name": "Premier Waterloo Inn 31",
    "description": "Premier Waterloo Inn 31 is a well-loved destination in London. Guests appreciate the central location, comfortable rooms, and attentive service. Ideal for business stays, weekend breaks, and exploring the city.",
    "lat": 51.427166,
    "lng": 0.043559,
    "address": "68 Baker Street, London, United Kingdom",
    "price": 476,
    "totalReviews": 16882,
    "averageRating": 3.1
  },
  {
    "name": "Urban Chelsea Palace 32",
    "description": "Urban Chelsea Palace 32 is a well-loved destination in London. Guests appreciate the central location, comfortable rooms, and attentive service. Ideal for business stays, weekend breaks, and exploring the city.",
    "lat": 51.619039,
    "lng": -0.331154,
    "address": "151 Piccadilly, London, United Kingdom",
    "price": 284,
    "totalReviews": 16036,
    "averageRating": 3.8
  },
  {
    "name": "Comfort Bloomsbury Palace 33",
    "description": "Comfort Bloomsbury Palace 33 is a well-loved destination in London. Guests appreciate the central location, comfortable rooms, and attentive service. Ideal for business stays, weekend breaks, and exploring the city.",
    "lat": 51.644223,
    "lng": -0.251819,
    "address": "8 High Street, London, United Kingdom",
    "price": 1042,
    "totalReviews": 15170,
    "averageRating": 3.1
  },
  {
    "name": "Heritage Chelsea Rooms 34",
    "description": "Heritage Chelsea Rooms 34 is a well-loved destination in London. Guests appreciate the central location, comfortable rooms, and attentive service. Ideal for business stays, weekend breaks, and exploring the city.",
    "lat": 51.304923,
    "lng": -0.45582,
    "address": "106 High Street, London, United Kingdom",
    "price": 672,
    "totalReviews": 17573,
    "averageRating": 2.8
  },
  {
    "name": "Signature Westminster Palace 35",
    "description": "Signature Westminster Palace 35 is a well-loved destination in London. Guests appreciate the central location, comfortable rooms, and attentive service. Ideal for business stays, weekend breaks, and exploring the city.",
    "lat": 51.551361,
    "lng": -0.421822,
    "address": "191 Regent Street, London, United Kingdom",
    "price": 1016,
    "totalReviews": 13630,
    "averageRating": 3.5
  },
  {
    "name": "Crown Hammersmith Apartments 36",
    "description": "Crown Hammersmith Apartments 36 is a well-loved destination in London. Guests appreciate the central location, comfortable rooms, and attentive service. Ideal for business stays, weekend breaks, and exploring the city.",
    "lat": 51.576349,
    "lng": -0.175236,
    "address": "98 Park Lane, London, United Kingdom",
    "price": 625,
    "totalReviews": 15065,
    "averageRating": 2.2
  },
  {
    "name": "Comfort Canary Wharf Stay 37",
    "description": "Comfort Canary Wharf Stay 37 is a well-loved destination in London. Guests appreciate the central location, comfortable rooms, and attentive service. Ideal for business stays, weekend breaks, and exploring the city.",
    "lat": 51.382507,
    "lng": -0.30815,
    "address": "144 Park Lane, London, United Kingdom",
    "price": 1188,
    "totalReviews": 12535,
    "averageRating": 2.1
  },
  {
    "name": "Luxury Hammersmith Palace 38",
    "description": "Luxury Hammersmith Palace 38 is a well-loved destination in London. Guests appreciate the central location, comfortable rooms, and attentive service. Ideal for business stays, weekend breaks, and exploring the city.",
    "lat": 51.662012,
    "lng": 0.035895,
    "address": "78 King's Road, London, United Kingdom",
    "price": 65,
    "totalReviews": 3842,
    "averageRating": 3.9
  },
  {
    "name": "Plaza Paddington Stay 39",
    "description": "Plaza Paddington Stay 39 is a well-loved destination in London. Guests appreciate the central location, comfortable rooms, and attentive service. Ideal for business stays, weekend breaks, and exploring the city.",
    "lat": 51.581545,
    "lng": 0.036011,
    "address": "148 Oxford Street, London, United Kingdom",
    "price": 968,
    "totalReviews": 3463,
    "averageRating": 4.4
  },
  {
    "name": "Luxury Canary Wharf Residency 40",
    "description": "Luxury Canary Wharf Residency 40 is a well-loved destination in London. Guests appreciate the central location, comfortable rooms, and attentive service. Ideal for business stays, weekend breaks, and exploring the city.",
    "lat": 51.475598,
    "lng": -0.27178,
    "address": "78 Oxford Street, London, United Kingdom",
    "price": 143,
    "totalReviews": 17484,
    "averageRating": 3.5
  },
  {
    "name": "Central Southbank Hotel 41",
    "description": "Central Southbank Hotel 41 is a well-loved destination in London. Guests appreciate the central location, comfortable rooms, and attentive service. Ideal for business stays, weekend breaks, and exploring the city.",
    "lat": 51.599952,
    "lng": 0.033754,
    "address": "34 Oxford Street, London, United Kingdom",
    "price": 198,
    "totalReviews": 19492,
    "averageRating": 4.3
  },
  {
    "name": "Premier Paddington Lodge 42",
    "description": "Premier Paddington Lodge 42 is a well-loved destination in London. Guests appreciate the central location, comfortable rooms, and attentive service. Ideal for business stays, weekend breaks, and exploring the city.",
    "lat": 51.635861,
    "lng": -0.051797,
    "address": "125 High Street, London, United Kingdom",
    "price": 448,
    "totalReviews": 15796,
    "averageRating": 3.5
  },
  {
    "name": "Plaza Shoreditch Residency 43",
    "description": "Plaza Shoreditch Residency 43 is a well-loved destination in London. Guests appreciate the central location, comfortable rooms, and attentive service. Ideal for business stays, weekend breaks, and exploring the city.",
    "lat": 51.432216,
    "lng": 0.145286,
    "address": "4 King's Road, London, United Kingdom",
    "price": 1142,
    "totalReviews": 2005,
    "averageRating": 2.6
  },
  {
    "name": "Golden Islington Hotel 44",
    "description": "Golden Islington Hotel 44 is a well-loved destination in London. Guests appreciate the central location, comfortable rooms, and attentive service. Ideal for business stays, weekend breaks, and exploring the city.",
    "lat": 51.490406,
    "lng": -0.116555,
    "address": "153 Baker Street, London, United Kingdom",
    "price": 582,
    "totalReviews": 19411,
    "averageRating": 4.4
  },
  {
    "name": "Elite Chelsea Plaza Hotel 45",
    "description": "Elite Chelsea Plaza Hotel 45 is a well-loved destination in London. Guests appreciate the central location, comfortable rooms, and attentive service. Ideal for business stays, weekend breaks, and exploring the city.",
    "lat": 51.606677,
    "lng": 0.051723,
    "address": "52 Piccadilly, London, United Kingdom",
    "price": 462,
    "totalReviews": 5665,
    "averageRating": 4.3
  },
  {
    "name": "Central Hammersmith Boutique Hotel 46",
    "description": "Central Hammersmith Boutique Hotel 46 is a well-loved destination in London. Guests appreciate the central location, comfortable rooms, and attentive service. Ideal for business stays, weekend breaks, and exploring the city.",
    "lat": 51.40338,
    "lng": -0.311442,
    "address": "52 Park Lane, London, United Kingdom",
    "price": 629,
    "totalReviews": 13477,
    "averageRating": 5.0
  },
  {
    "name": "Imperial Paddington Hotel 47",
    "description": "Imperial Paddington Hotel 47 is a well-loved destination in London. Guests appreciate the central location, comfortable rooms, and attentive service. Ideal for business stays, weekend breaks, and exploring the city.",
    "lat": 51.327608,
    "lng": -0.185766,
    "address": "43 High Street, London, United Kingdom",
    "price": 737,
    "totalReviews": 14711,
    "averageRating": 3.6
  },
  {
    "name": "Heritage Bloomsbury Boutique Hotel 48",
    "description": "Heritage Bloomsbury Boutique Hotel 48 is a well-loved destination in London. Guests appreciate the central location, comfortable rooms, and attentive service. Ideal for business stays, weekend breaks, and exploring the city.",
    "lat": 51.315524,
    "lng": 0.152891,
    "address": "77 Piccadilly, London, United Kingdom",
    "price": 206,
    "totalReviews": 2042,
    "averageRating": 4.5
  },
  {
    "name": "Regent Covent Garden Inn 49",
    "description": "Regent Covent Garden Inn 49 is a well-loved destination in London. Guests appreciate the central location, comfortable rooms, and attentive service. Ideal for business stays, weekend breaks, and exploring the city.",
    "lat": 51.674905,
    "lng": -0.429671,
    "address": "62 Piccadilly, London, United Kingdom",
    "price": 208,
    "totalReviews": 16140,
    "averageRating": 4.9
  },
  {
    "name": "Grand Canary Wharf Boutique Hotel 50",
    "description": "Grand Canary Wharf Boutique Hotel 50 is a well-loved destination in London. Guests appreciate the central location, comfortable rooms, and attentive service. Ideal for business stays, weekend breaks, and exploring the city.",
    "lat": 51.478036,
    "lng": -0.024595,
    "address": "106 High Street, London, United Kingdom",
    "price": 987,
    "totalReviews": 18586,
    "averageRating": 3.7
  },
  {
    "name": "Comfort Bloomsbury Boutique Hotel 51",
    "description": "Comfort Bloomsbury Boutique Hotel 51 is a well-loved destination in London. Guests appreciate the central location, comfortable rooms, and attentive service. Ideal for business stays, weekend breaks, and exploring the city.",
    "lat": 51.562666,
    "lng": 0.132355,
    "address": "190 High Street, London, United Kingdom",
    "price": 1050,
    "totalReviews": 12651,
    "averageRating": 2.7
  },
  {
    "name": "Premier Soho Palace 52",
    "description": "Premier Soho Palace 52 is a well-loved destination in London. Guests appreciate the central location, comfortable rooms, and attentive service. Ideal for business stays, weekend breaks, and exploring the city.",
    "lat": 51.552641,
    "lng": 0.175008,
    "address": "161 King's Road, London, United Kingdom",
    "price": 1064,
    "totalReviews": 5391,
    "averageRating": 2.8
  },
  {
    "name": "Imperial Southbank Suites 53",
    "description": "Imperial Southbank Suites 53 is a well-loved destination in London. Guests appreciate the central location, comfortable rooms, and attentive service. Ideal for business stays, weekend breaks, and exploring the city.",
    "lat": 51.443903,
    "lng": -0.097398,
    "address": "90 Piccadilly, London, United Kingdom",
    "price": 176,
    "totalReviews": 4725,
    "averageRating": 4.5
  },
  {
    "name": "Grand Canary Wharf Lodge 54",
    "description": "Grand Canary Wharf Lodge 54 is a well-loved destination in London. Guests appreciate the central location, comfortable rooms, and attentive service. Ideal for business stays, weekend breaks, and exploring the city.",
    "lat": 51.435763,
    "lng": 0.249593,
    "address": "178 King's Road, London, United Kingdom",
    "price": 68,
    "totalReviews": 15249,
    "averageRating": 2.0
  },
  {
    "name": "Royal London Inn 55",
    "description": "Royal London Inn 55 is a well-loved destination in London. Guests appreciate the central location, comfortable rooms, and attentive service. Ideal for business stays, weekend breaks, and exploring the city.",
    "lat": 51.577494,
    "lng": 0.000202,
    "address": "93 High Street, London, United Kingdom",
    "price": 954,
    "totalReviews": 1810,
    "averageRating": 3.1
  },
  {
    "name": "Grand Camden Suites 56",
    "description": "Grand Camden Suites 56 is a well-loved destination in London. Guests appreciate the central location, comfortable rooms, and attentive service. Ideal for business stays, weekend breaks, and exploring the city.",
    "lat": 51.645642,
    "lng": 0.282501,
    "address": "160 Park Lane, London, United Kingdom",
    "price": 518,
    "totalReviews": 18565,
    "averageRating": 4.1
  },
  {
    "name": "Grand Covent Garden Hotel 57",
    "description": "Grand Covent Garden Hotel 57 is a well-loved destination in London. Guests appreciate the central location, comfortable rooms, and attentive service. Ideal for business stays, weekend breaks, and exploring the city.",
    "lat": 51.589734,
    "lng": -0.136312,
    "address": "14 King's Road, London, United Kingdom",
    "price": 878,
    "totalReviews": 8266,
    "averageRating": 5.0
  },
  {
    "name": "Park Hackney Palace 58",
    "description": "Park Hackney Palace 58 is a well-loved destination in London. Guests appreciate the central location, comfortable rooms, and attentive service. Ideal for business stays, weekend breaks, and exploring the city.",
    "lat": 51.615995,
    "lng": 0.237851,
    "address": "82 Regent Street, London, United Kingdom",
    "price": 361,
    "totalReviews": 25,
    "averageRating": 4.0
  },
  {
    "name": "Luxury Greenwich Rooms 59",
    "description": "Luxury Greenwich Rooms 59 is a well-loved destination in London. Guests appreciate the central location, comfortable rooms, and attentive service. Ideal for business stays, weekend breaks, and exploring the city.",
    "lat": 51.46408,
    "lng": -0.242849,
    "address": "17 Park Lane, London, United Kingdom",
    "price": 258,
    "totalReviews": 2736,
    "averageRating": 2.0
  },
  {
    "name": "Royal Covent Garden Apartments 60",
    "description": "Royal Covent Garden Apartments 60 is a well-loved destination in London. Guests appreciate the central location, comfortable rooms, and attentive service. Ideal for business stays, weekend breaks, and exploring the city.",
    "lat": 51.683539,
    "lng": -0.369087,
    "address": "47 High Street, London, United Kingdom",
    "price": 353,
    "totalReviews": 3223,
    "averageRating": 3.1
  },
  {
    "name": "Majestic Camden Boutique Hotel 61",
    "description": "Majestic Camden Boutique Hotel 61 is a well-loved destination in London. Guests appreciate the central location, comfortable rooms, and attentive service. Ideal for business stays, weekend breaks, and exploring the city.",
    "lat": 51.467608,
    "lng": -0.490991,
    "address": "157 High Street, London, United Kingdom",
    "price": 360,
    "totalReviews": 2843,
    "averageRating": 4.3
  },
  {
    "name": "Crown Bridge Inn 62",
    "description": "Crown Bridge Inn 62 is a well-loved destination in London. Guests appreciate the central location, comfortable rooms, and attentive service. Ideal for business stays, weekend breaks, and exploring the city.",
    "lat": 51.617757,
    "lng": 0.261991,
    "address": "153 Piccadilly, London, United Kingdom",
    "price": 235,
    "totalReviews": 7862,
    "averageRating": 3.7
  },
  {
    "name": "Regent London Apartments 63",
    "description": "Regent London Apartments 63 is a well-loved destination in London. Guests appreciate the central location, comfortable rooms, and attentive service. Ideal for business stays, weekend breaks, and exploring the city.",
    "lat": 51.688376,
    "lng": 0.223308,
    "address": "68 Park Lane, London, United Kingdom",
    "price": 629,
    "totalReviews": 19173,
    "averageRating": 2.6
  },
  {
    "name": "Crown Bridge Rooms 64",
    "description": "Crown Bridge Rooms 64 is a well-loved destination in London. Guests appreciate the central location, comfortable rooms, and attentive service. Ideal for business stays, weekend breaks, and exploring the city.",
    "lat": 51.46433,
    "lng": -0.258965,
    "address": "42 Oxford Street, London, United Kingdom",
    "price": 900,
    "totalReviews": 14219,
    "averageRating": 3.6
  },
  {
    "name": "Imperial London Plaza Hotel 65",
    "description": "Imperial London Plaza Hotel 65 is a well-loved destination in London. Guests appreciate the central location, comfortable rooms, and attentive service. Ideal for business stays, weekend breaks, and exploring the city.",
    "lat": 51.585971,
    "lng": 0.297617,
    "address": "166 King's Road, London, United Kingdom",
    "price": 679,
    "totalReviews": 1162,
    "averageRating": 3.4
  },
  {
    "name": "Grand Bridge Stay 66",
    "description": "Grand Bridge Stay 66 is a well-loved destination in London. Guests appreciate the central location, comfortable rooms, and attentive service. Ideal for business stays, weekend breaks, and exploring the city.",
    "lat": 51.382771,
    "lng": -0.2325,
    "address": "90 Baker Street, London, United Kingdom",
    "price": 1020,
    "totalReviews": 16969,
    "averageRating": 2.5
  },
  {
    "name": "Golden Notting Hill Inn 67",
    "description": "Golden Notting Hill Inn 67 is a well-loved destination in London. Guests appreciate the central location, comfortable rooms, and attentive service. Ideal for business stays, weekend breaks, and exploring the city.",
    "lat": 51.570801,
    "lng": 0.196369,
    "address": "147 High Street, London, United Kingdom",
    "price": 329,
    "totalReviews": 5881,
    "averageRating": 3.0
  },
  {
    "name": "Crown Paddington Stay 68",
    "description": "Crown Paddington Stay 68 is a well-loved destination in London. Guests appreciate the central location, comfortable rooms, and attentive service. Ideal for business stays, weekend breaks, and exploring the city.",
    "lat": 51.56801,
    "lng": -0.171931,
    "address": "41 Piccadilly, London, United Kingdom",
    "price": 676,
    "totalReviews": 2982,
    "averageRating": 4.5
  },
  {
    "name": "Signature Camden Rooms 69",
    "description": "Signature Camden Rooms 69 is a well-loved destination in London. Guests appreciate the central location, comfortable rooms, and attentive service. Ideal for business stays, weekend breaks, and exploring the city.",
    "lat": 51.661799,
    "lng": -0.108861,
    "address": "175 High Street, London, United Kingdom",
    "price": 509,
    "totalReviews": 4972,
    "averageRating": 2.9
  },
  {
    "name": "Tower Shoreditch Inn 70",
    "description": "Tower Shoreditch Inn 70 is a well-loved destination in London. Guests appreciate the central location, comfortable rooms, and attentive service. Ideal for business stays, weekend breaks, and exploring the city.",
    "lat": 51.59793,
    "lng": 0.01434,
    "address": "1 King's Road, London, United Kingdom",
    "price": 849,
    "totalReviews": 14840,
    "averageRating": 4.2
  },
  {
    "name": "Golden Shoreditch Resort 71",
    "description": "Golden Shoreditch Resort 71 is a well-loved destination in London. Guests appreciate the central location, comfortable rooms, and attentive service. Ideal for business stays, weekend breaks, and exploring the city.",
    "lat": 51.462544,
    "lng": -0.388849,
    "address": "18 Regent Street, London, United Kingdom",
    "price": 76,
    "totalReviews": 6207,
    "averageRating": 2.2
  },
  {
    "name": "Majestic Bloomsbury Rooms 72",
    "description": "Majestic Bloomsbury Rooms 72 is a well-loved destination in London. Guests appreciate the central location, comfortable rooms, and attentive service. Ideal for business stays, weekend breaks, and exploring the city.",
    "lat": 51.507266,
    "lng": -0.006206,
    "address": "179 King's Road, London, United Kingdom",
    "price": 1196,
    "totalReviews": 9422,
    "averageRating": 3.6
  },
  {
    "name": "Regent Westminster Rooms 73",
    "description": "Regent Westminster Rooms 73 is a well-loved destination in London. Guests appreciate the central location, comfortable rooms, and attentive service. Ideal for business stays, weekend breaks, and exploring the city.",
    "lat": 51.405994,
    "lng": 0.163161,
    "address": "186 King's Road, London, United Kingdom",
    "price": 649,
    "totalReviews": 18856,
    "averageRating": 4.7
  },
  {
    "name": "Plaza London Plaza Hotel 74",
    "description": "Plaza London Plaza Hotel 74 is a well-loved destination in London. Guests appreciate the central location, comfortable rooms, and attentive service. Ideal for business stays, weekend breaks, and exploring the city.",
    "lat": 51.323226,
    "lng": -0.383025,
    "address": "111 Baker Street, London, United Kingdom",
    "price": 614,
    "totalReviews": 8589,
    "averageRating": 4.6
  },
  {
    "name": "Elite Kensington Lodge 75",
    "description": "Elite Kensington Lodge 75 is a well-loved destination in London. Guests appreciate the central location, comfortable rooms, and attentive service. Ideal for business stays, weekend breaks, and exploring the city.",
    "lat": 51.409534,
    "lng": -0.150825,
    "address": "39 Regent Street, London, United Kingdom",
    "price": 482,
    "totalReviews": 12254,
    "averageRating": 4.8
  },
  {
    "name": "Park Kensington Residency 76",
    "description": "Park Kensington Residency 76 is a well-loved destination in London. Guests appreciate the central location, comfortable rooms, and attentive service. Ideal for business stays, weekend breaks, and exploring the city.",
    "lat": 51.434486,
    "lng": 0.010543,
    "address": "175 High Street, London, United Kingdom",
    "price": 935,
    "totalReviews": 15840,
    "averageRating": 4.3
  },
  {
    "name": "Imperial Chelsea Suites 77",
    "description": "Imperial Chelsea Suites 77 is a well-loved destination in London. Guests appreciate the central location, comfortable rooms, and attentive service. Ideal for business stays, weekend breaks, and exploring the city.",
    "lat": 51.682575,
    "lng": -0.370329,
    "address": "6 Park Lane, London, United Kingdom",
    "price": 517,
    "totalReviews": 14113,
    "averageRating": 3.4
  },
  {
    "name": "Elite Covent Garden Apartments 78",
    "description": "Elite Covent Garden Apartments 78 is a well-loved destination in London. Guests appreciate the central location, comfortable rooms, and attentive service. Ideal for business stays, weekend breaks, and exploring the city.",
    "lat": 51.408631,
    "lng": -0.484252,
    "address": "76 High Street, London, United Kingdom",
    "price": 262,
    "totalReviews": 9703,
    "averageRating": 2.9
  },
  {
    "name": "Plaza Chelsea Suites 79",
    "description": "Plaza Chelsea Suites 79 is a well-loved destination in London. Guests appreciate the central location, comfortable rooms, and attentive service. Ideal for business stays, weekend breaks, and exploring the city.",
    "lat": 51.66118,
    "lng": 0.027355,
    "address": "133 High Street, London, United Kingdom",
    "price": 1038,
    "totalReviews": 14169,
    "averageRating": 2.5
  },
  {
    "name": "Comfort Canary Wharf Stay 80",
    "description": "Comfort Canary Wharf Stay 80 is a well-loved destination in London. Guests appreciate the central location, comfortable rooms, and attentive service. Ideal for business stays, weekend breaks, and exploring the city.",
    "lat": 51.646244,
    "lng": -0.163227,
    "address": "186 Park Lane, London, United Kingdom",
    "price": 111,
    "totalReviews": 16659,
    "averageRating": 3.0
  },
  {
    "name": "Comfort Canary Wharf Rooms 81",
    "description": "Comfort Canary Wharf Rooms 81 is a well-loved destination in London. Guests appreciate the central location, comfortable rooms, and attentive service. Ideal for business stays, weekend breaks, and exploring the city.",
    "lat": 51.604538,
    "lng": 0.24191,
    "address": "96 Baker Street, London, United Kingdom",
    "price": 756,
    "totalReviews": 6950,
    "averageRating": 2.5
  },
  {
    "name": "Regent Mayfair Resort 82",
    "description": "Regent Mayfair Resort 82 is a well-loved destination in London. Guests appreciate the central location, comfortable rooms, and attentive service. Ideal for business stays, weekend breaks, and exploring the city.",
    "lat": 51.410412,
    "lng": 0.110748,
    "address": "141 Piccadilly, London, United Kingdom",
    "price": 366,
    "totalReviews": 17087,
    "averageRating": 4.3
  },
  {
    "name": "Heritage Covent Garden Plaza Hotel 83",
    "description": "Heritage Covent Garden Plaza Hotel 83 is a well-loved destination in London. Guests appreciate the central location, comfortable rooms, and attentive service. Ideal for business stays, weekend breaks, and exploring the city.",
    "lat": 51.510663,
    "lng": -0.440569,
    "address": "78 Baker Street, London, United Kingdom",
    "price": 817,
    "totalReviews": 14781,
    "averageRating": 3.4
  },
  {
    "name": "Majestic Camden Inn 84",
    "description": "Majestic Camden Inn 84 is a well-loved destination in London. Guests appreciate the central location, comfortable rooms, and attentive service. Ideal for business stays, weekend breaks, and exploring the city.",
    "lat": 51.473782,
    "lng": -0.023353,
    "address": "73 Piccadilly, London, United Kingdom",
    "price": 926,
    "totalReviews": 11336,
    "averageRating": 2.6
  },
  {
    "name": "Elite Bridge Stay 85",
    "description": "Elite Bridge Stay 85 is a well-loved destination in London. Guests appreciate the central location, comfortable rooms, and attentive service. Ideal for business stays, weekend breaks, and exploring the city.",
    "lat": 51.67486,
    "lng": 0.240818,
    "address": "68 Park Lane, London, United Kingdom",
    "price": 902,
    "totalReviews": 14543,
    "averageRating": 3.5
  },
  {
    "name": "Imperial Bloomsbury Hotel 86",
    "description": "Imperial Bloomsbury Hotel 86 is a well-loved destination in London. Guests appreciate the central location, comfortable rooms, and attentive service. Ideal for business stays, weekend breaks, and exploring the city.",
    "lat": 51.488392,
    "lng": 0.217808,
    "address": "92 Baker Street, London, United Kingdom",
    "price": 827,
    "totalReviews": 17677,
    "averageRating": 2.6
  },
  {
    "name": "Imperial Paddington Lodge 87",
    "description": "Imperial Paddington Lodge 87 is a well-loved destination in London. Guests appreciate the central location, comfortable rooms, and attentive service. Ideal for business stays, weekend breaks, and exploring the city.",
    "lat": 51.596181,
    "lng": 0.199182,
    "address": "198 Piccadilly, London, United Kingdom",
    "price": 186,
    "totalReviews": 3979,
    "averageRating": 4.1
  },
  {
    "name": "Crown Canary Wharf Boutique Hotel 88",
    "description": "Crown Canary Wharf Boutique Hotel 88 is a well-loved destination in London. Guests appreciate the central location, comfortable rooms, and attentive service. Ideal for business stays, weekend breaks, and exploring the city.",
    "lat": 51.345665,
    "lng": -0.283317,
    "address": "151 King's Road, London, United Kingdom",
    "price": 66,
    "totalReviews": 5651,
    "averageRating": 3.4
  },
  {
    "name": "Park Canary Wharf Rooms 89",
    "description": "Park Canary Wharf Rooms 89 is a well-loved destination in London. Guests appreciate the central location, comfortable rooms, and attentive service. Ideal for business stays, weekend breaks, and exploring the city.",
    "lat": 51.561621,
    "lng": -0.038392,
    "address": "89 High Street, London, United Kingdom",
    "price": 420,
    "totalReviews": 15910,
    "averageRating": 2.5
  },
  {
    "name": "Royal Camden Rooms 90",
    "description": "Royal Camden Rooms 90 is a well-loved destination in London. Guests appreciate the central location, comfortable rooms, and attentive service. Ideal for business stays, weekend breaks, and exploring the city.",
    "lat": 51.354161,
    "lng": 0.224448,
    "address": "63 Park Lane, London, United Kingdom",
    "price": 355,
    "totalReviews": 9069,
    "averageRating": 4.0
  },
  {
    "name": "Luxury Soho Suites 91",
    "description": "Luxury Soho Suites 91 is a well-loved destination in London. Guests appreciate the central location, comfortable rooms, and attentive service. Ideal for business stays, weekend breaks, and exploring the city.",
    "lat": 51.336539,
    "lng": -0.35469,
    "address": "43 King's Road, London, United Kingdom",
    "price": 382,
    "totalReviews": 3229,
    "averageRating": 2.6
  },
  {
    "name": "Imperial Canary Wharf Hotel 92",
    "description": "Imperial Canary Wharf Hotel 92 is a well-loved destination in London. Guests appreciate the central location, comfortable rooms, and attentive service. Ideal for business stays, weekend breaks, and exploring the city.",
    "lat": 51.663034,
    "lng": 0.286155,
    "address": "132 High Street, London, United Kingdom",
    "price": 252,
    "totalReviews": 17707,
    "averageRating": 3.0
  },
  {
    "name": "Golden Kensington Boutique Hotel 93",
    "description": "Golden Kensington Boutique Hotel 93 is a well-loved destination in London. Guests appreciate the central location, comfortable rooms, and attentive service. Ideal for business stays, weekend breaks, and exploring the city.",
    "lat": 51.349519,
    "lng": 0.149756,
    "address": "68 King's Road, London, United Kingdom",
    "price": 1187,
    "totalReviews": 10207,
    "averageRating": 4.4
  },
  {
    "name": "Plaza Soho Inn 94",
    "description": "Plaza Soho Inn 94 is a well-loved destination in London. Guests appreciate the central location, comfortable rooms, and attentive service. Ideal for business stays, weekend breaks, and exploring the city.",
    "lat": 51.503525,
    "lng": -0.277603,
    "address": "15 Oxford Street, London, United Kingdom",
    "price": 75,
    "totalReviews": 7376,
    "averageRating": 2.7
  },
  {
    "name": "Urban Shoreditch Suites 95",
    "description": "Urban Shoreditch Suites 95 is a well-loved destination in London. Guests appreciate the central location, comfortable rooms, and attentive service. Ideal for business stays, weekend breaks, and exploring the city.",
    "lat": 51.486622,
    "lng": -0.227797,
    "address": "53 Oxford Street, London, United Kingdom",
    "price": 550,
    "totalReviews": 18585,
    "averageRating": 3.1
  },
  {
    "name": "Premier Greenwich Inn 96",
    "description": "Premier Greenwich Inn 96 is a well-loved destination in London. Guests appreciate the central location, comfortable rooms, and attentive service. Ideal for business stays, weekend breaks, and exploring the city.",
    "lat": 51.520949,
    "lng": 0.057986,
    "address": "19 King's Road, London, United Kingdom",
    "price": 617,
    "totalReviews": 6793,
    "averageRating": 4.1
  },
  {
    "name": "Crown Paddington Apartments 97",
    "description": "Crown Paddington Apartments 97 is a well-loved destination in London. Guests appreciate the central location, comfortable rooms, and attentive service. Ideal for business stays, weekend breaks, and exploring the city.",
    "lat": 51.673764,
    "lng": 0.206923,
    "address": "10 High Street, London, United Kingdom",
    "price": 1104,
    "totalReviews": 13330,
    "averageRating": 2.9
  },
  {
    "name": "Imperial Westminster Resort 98",
    "description": "Imperial Westminster Resort 98 is a well-loved destination in London. Guests appreciate the central location, comfortable rooms, and attentive service. Ideal for business stays, weekend breaks, and exploring the city.",
    "lat": 51.612542,
    "lng": 0.160618,
    "address": "9 High Street, London, United Kingdom",
    "price": 1181,
    "totalReviews": 7680,
    "averageRating": 2.0
  },
  {
    "name": "Heritage Bridge Plaza Hotel 99",
    "description": "Heritage Bridge Plaza Hotel 99 is a well-loved destination in London. Guests appreciate the central location, comfortable rooms, and attentive service. Ideal for business stays, weekend breaks, and exploring the city.",
    "lat": 51.394114,
    "lng": 0.154318,
    "address": "114 Park Lane, London, United Kingdom",
    "price": 717,
    "totalReviews": 12265,
    "averageRating": 2.2
  },
  {
    "name": "Signature Kensington Suites 100",
    "description": "Signature Kensington Suites 100 is a well-loved destination in London. Guests appreciate the central location, comfortable rooms, and attentive service. Ideal for business stays, weekend breaks, and exploring the city.",
    "lat": 51.451246,
    "lng": -0.156833,
    "address": "28 Oxford Street, London, United Kingdom",
    "price": 857,
    "totalReviews": 7037,
    "averageRating": 3.3
  },
  {
    "name": "Comfort Mayfair Residency 101",
    "description": "Comfort Mayfair Residency 101 is a well-loved destination in London. Guests appreciate the central location, comfortable rooms, and attentive service. Ideal for business stays, weekend breaks, and exploring the city.",
    "lat": 51.359095,
    "lng": -0.051001,
    "address": "3 King's Road, London, United Kingdom",
    "price": 651,
    "totalReviews": 12865,
    "averageRating": 2.1
  },
  {
    "name": "Comfort Soho Inn 102",
    "description": "Comfort Soho Inn 102 is a well-loved destination in London. Guests appreciate the central location, comfortable rooms, and attentive service. Ideal for business stays, weekend breaks, and exploring the city.",
    "lat": 51.65527,
    "lng": -0.443019,
    "address": "46 Regent Street, London, United Kingdom",
    "price": 150,
    "totalReviews": 13348,
    "averageRating": 4.7
  },
  {
    "name": "Central Waterloo Hotel 103",
    "description": "Central Waterloo Hotel 103 is a well-loved destination in London. Guests appreciate the central location, comfortable rooms, and attentive service. Ideal for business stays, weekend breaks, and exploring the city.",
    "lat": 51.418394,
    "lng": -0.455396,
    "address": "168 Baker Street, London, United Kingdom",
    "price": 610,
    "totalReviews": 12308,
    "averageRating": 3.8
  },
  {
    "name": "Regent Kensington Stay 104",
    "description": "Regent Kensington Stay 104 is a well-loved destination in London. Guests appreciate the central location, comfortable rooms, and attentive service. Ideal for business stays, weekend breaks, and exploring the city.",
    "lat": 51.45932,
    "lng": -0.244563,
    "address": "5 King's Road, London, United Kingdom",
    "price": 313,
    "totalReviews": 10480,
    "averageRating": 4.7
  },
  {
    "name": "Grand Hackney Plaza Hotel 105",
    "description": "Grand Hackney Plaza Hotel 105 is a well-loved destination in London. Guests appreciate the central location, comfortable rooms, and attentive service. Ideal for business stays, weekend breaks, and exploring the city.",
    "lat": 51.535415,
    "lng": -0.455843,
    "address": "83 Oxford Street, London, United Kingdom",
    "price": 1066,
    "totalReviews": 9748,
    "averageRating": 4.6
  },
  {
    "name": "Park Bloomsbury Palace 106",
    "description": "Park Bloomsbury Palace 106 is a well-loved destination in London. Guests appreciate the central location, comfortable rooms, and attentive service. Ideal for business stays, weekend breaks, and exploring the city.",
    "lat": 51.301395,
    "lng": 0.145274,
    "address": "115 Baker Street, London, United Kingdom",
    "price": 312,
    "totalReviews": 6966,
    "averageRating": 4.8
  },
  {
    "name": "Imperial Notting Hill Residency 107",
    "description": "Imperial Notting Hill Residency 107 is a well-loved destination in London. Guests appreciate the central location, comfortable rooms, and attentive service. Ideal for business stays, weekend breaks, and exploring the city.",
    "lat": 51.42157,
    "lng": 0.005244,
    "address": "47 High Street, London, United Kingdom",
    "price": 907,
    "totalReviews": 6853,
    "averageRating": 4.6
  },
  {
    "name": "Crown Hackney Apartments 108",
    "description": "Crown Hackney Apartments 108 is a well-loved destination in London. Guests appreciate the central location, comfortable rooms, and attentive service. Ideal for business stays, weekend breaks, and exploring the city.",
    "lat": 51.407381,
    "lng": -0.079422,
    "address": "116 High Street, London, United Kingdom",
    "price": 244,
    "totalReviews": 14444,
    "averageRating": 3.0
  },
  {
    "name": "Tower Hackney Rooms 109",
    "description": "Tower Hackney Rooms 109 is a well-loved destination in London. Guests appreciate the central location, comfortable rooms, and attentive service. Ideal for business stays, weekend breaks, and exploring the city.",
    "lat": 51.310941,
    "lng": 0.264284,
    "address": "179 Piccadilly, London, United Kingdom",
    "price": 702,
    "totalReviews": 7197,
    "averageRating": 2.7
  },
  {
    "name": "Plaza Hammersmith Resort 110",
    "description": "Plaza Hammersmith Resort 110 is a well-loved destination in London. Guests appreciate the central location, comfortable rooms, and attentive service. Ideal for business stays, weekend breaks, and exploring the city.",
    "lat": 51.549355,
    "lng": 0.080998,
    "address": "200 Piccadilly, London, United Kingdom",
    "price": 1185,
    "totalReviews": 7662,
    "averageRating": 2.4
  },
  {
    "name": "Premier Chelsea Palace 111",
    "description": "Premier Chelsea Palace 111 is a well-loved destination in London. Guests appreciate the central location, comfortable rooms, and attentive service. Ideal for business stays, weekend breaks, and exploring the city.",
    "lat": 51.382253,
    "lng": 0.044976,
    "address": "176 Park Lane, London, United Kingdom",
    "price": 671,
    "totalReviews": 13071,
    "averageRating": 2.2
  },
  {
    "name": "Signature Shoreditch Resort 112",
    "description": "Signature Shoreditch Resort 112 is a well-loved destination in London. Guests appreciate the central location, comfortable rooms, and attentive service. Ideal for business stays, weekend breaks, and exploring the city.",
    "lat": 51.359518,
    "lng": -0.349165,
    "address": "60 High Street, London, United Kingdom",
    "price": 1134,
    "totalReviews": 14537,
    "averageRating": 3.8
  },
  {
    "name": "Urban Southbank Boutique Hotel 113",
    "description": "Urban Southbank Boutique Hotel 113 is a well-loved destination in London. Guests appreciate the central location, comfortable rooms, and attentive service. Ideal for business stays, weekend breaks, and exploring the city.",
    "lat": 51.40853,
    "lng": -0.182349,
    "address": "47 Regent Street, London, United Kingdom",
    "price": 833,
    "totalReviews": 5470,
    "averageRating": 3.7
  },
  {
    "name": "Grand Bloomsbury Inn 114",
    "description": "Grand Bloomsbury Inn 114 is a well-loved destination in London. Guests appreciate the central location, comfortable rooms, and attentive service. Ideal for business stays, weekend breaks, and exploring the city.",
    "lat": 51.437432,
    "lng": 0.29995,
    "address": "140 King's Road, London, United Kingdom",
    "price": 1113,
    "totalReviews": 9438,
    "averageRating": 3.5
  },
  {
    "name": "Crown Bloomsbury Residency 115",
    "description": "Crown Bloomsbury Residency 115 is a well-loved destination in London. Guests appreciate the central location, comfortable rooms, and attentive service. Ideal for business stays, weekend breaks, and exploring the city.",
    "lat": 51.591428,
    "lng": -0.40356,
    "address": "48 Oxford Street, London, United Kingdom",
    "price": 221,
    "totalReviews": 4083,
    "averageRating": 3.2
  },
  {
    "name": "Urban Hackney Rooms 116",
    "description": "Urban Hackney Rooms 116 is a well-loved destination in London. Guests appreciate the central location, comfortable rooms, and attentive service. Ideal for business stays, weekend breaks, and exploring the city.",
    "lat": 51.417145,
    "lng": -0.300146,
    "address": "37 Oxford Street, London, United Kingdom",
    "price": 955,
    "totalReviews": 12560,
    "averageRating": 2.3
  },
  {
    "name": "Crown Shoreditch Plaza Hotel 117",
    "description": "Crown Shoreditch Plaza Hotel 117 is a well-loved destination in London. Guests appreciate the central location, comfortable rooms, and attentive service. Ideal for business stays, weekend breaks, and exploring the city.",
    "lat": 51.585657,
    "lng": -0.203519,
    "address": "173 King's Road, London, United Kingdom",
    "price": 171,
    "totalReviews": 2727,
    "averageRating": 4.0
  },
  {
    "name": "Tower Camden Residency 118",
    "description": "Tower Camden Residency 118 is a well-loved destination in London. Guests appreciate the central location, comfortable rooms, and attentive service. Ideal for business stays, weekend breaks, and exploring the city.",
    "lat": 51.442415,
    "lng": -0.305321,
    "address": "126 High Street, London, United Kingdom",
    "price": 129,
    "totalReviews": 5748,
    "averageRating": 2.9
  },
  {
    "name": "City Hammersmith Rooms 119",
    "description": "City Hammersmith Rooms 119 is a well-loved destination in London. Guests appreciate the central location, comfortable rooms, and attentive service. Ideal for business stays, weekend breaks, and exploring the city.",
    "lat": 51.689292,
    "lng": -0.256249,
    "address": "166 King's Road, London, United Kingdom",
    "price": 278,
    "totalReviews": 8414,
    "averageRating": 3.7
  },
  {
    "name": "Grand London Boutique Hotel 120",
    "description": "Grand London Boutique Hotel 120 is a well-loved destination in London. Guests appreciate the central location, comfortable rooms, and attentive service. Ideal for business stays, weekend breaks, and exploring the city.",
    "lat": 51.326678,
    "lng": 0.06623,
    "address": "37 Park Lane, London, United Kingdom",
    "price": 1111,
    "totalReviews": 10328,
    "averageRating": 3.9
  },
  {
    "name": "Crown Shoreditch Residency 121",
    "description": "Crown Shoreditch Residency 121 is a well-loved destination in London. Guests appreciate the central location, comfortable rooms, and attentive service. Ideal for business stays, weekend breaks, and exploring the city.",
    "lat": 51.346226,
    "lng": -0.255077,
    "address": "107 Oxford Street, London, United Kingdom",
    "price": 734,
    "totalReviews": 8353,
    "averageRating": 4.2
  },
  {
    "name": "Central Canary Wharf Plaza Hotel 122",
    "description": "Central Canary Wharf Plaza Hotel 122 is a well-loved destination in London. Guests appreciate the central location, comfortable rooms, and attentive service. Ideal for business stays, weekend breaks, and exploring the city.",
    "lat": 51.47421,
    "lng": -0.059089,
    "address": "197 Oxford Street, London, United Kingdom",
    "price": 936,
    "totalReviews": 13831,
    "averageRating": 4.6
  },
  {
    "name": "Plaza Waterloo Suites 123",
    "description": "Plaza Waterloo Suites 123 is a well-loved destination in London. Guests appreciate the central location, comfortable rooms, and attentive service. Ideal for business stays, weekend breaks, and exploring the city.",
    "lat": 51.536125,
    "lng": -0.098566,
    "address": "122 Piccadilly, London, United Kingdom",
    "price": 332,
    "totalReviews": 4994,
    "averageRating": 3.4
  },
  {
    "name": "Signature Chelsea Lodge 124",
    "description": "Signature Chelsea Lodge 124 is a well-loved destination in London. Guests appreciate the central location, comfortable rooms, and attentive service. Ideal for business stays, weekend breaks, and exploring the city.",
    "lat": 51.43328,
    "lng": 0.059521,
    "address": "14 Baker Street, London, United Kingdom",
    "price": 140,
    "totalReviews": 18591,
    "averageRating": 3.0
  },
  {
    "name": "Premier Soho Plaza Hotel 125",
    "description": "Premier Soho Plaza Hotel 125 is a well-loved destination in London. Guests appreciate the central location, comfortable rooms, and attentive service. Ideal for business stays, weekend breaks, and exploring the city.",
    "lat": 51.385939,
    "lng": 0.262873,
    "address": "10 King's Road, London, United Kingdom",
    "price": 544,
    "totalReviews": 3158,
    "averageRating": 3.2
  },
  {
    "name": "Luxury Bridge Lodge 126",
    "description": "Luxury Bridge Lodge 126 is a well-loved destination in London. Guests appreciate the central location, comfortable rooms, and attentive service. Ideal for business stays, weekend breaks, and exploring the city.",
    "lat": 51.599319,
    "lng": 0.244134,
    "address": "192 Oxford Street, London, United Kingdom",
    "price": 337,
    "totalReviews": 12526,
    "averageRating": 2.7
  },
  {
    "name": "Royal Bloomsbury Apartments 127",
    "description": "Royal Bloomsbury Apartments 127 is a well-loved destination in London. Guests appreciate the central location, comfortable rooms, and attentive service. Ideal for business stays, weekend breaks, and exploring the city.",
    "lat": 51.497916,
    "lng": -0.317465,
    "address": "143 Regent Street, London, United Kingdom",
    "price": 403,
    "totalReviews": 4062,
    "averageRating": 3.7
  },
  {
    "name": "Central Southbank Lodge 128",
    "description": "Central Southbank Lodge 128 is a well-loved destination in London. Guests appreciate the central location, comfortable rooms, and attentive service. Ideal for business stays, weekend breaks, and exploring the city.",
    "lat": 51.451227,
    "lng": -0.421577,
    "address": "123 Baker Street, London, United Kingdom",
    "price": 1199,
    "totalReviews": 6708,
    "averageRating": 4.1
  },
  {
    "name": "Urban London Resort 129",
    "description": "Urban London Resort 129 is a well-loved destination in London. Guests appreciate the central location, comfortable rooms, and attentive service. Ideal for business stays, weekend breaks, and exploring the city.",
    "lat": 51.687014,
    "lng": 0.127266,
    "address": "36 Oxford Street, London, United Kingdom",
    "price": 562,
    "totalReviews": 16557,
    "averageRating": 3.6
  },
  {
    "name": "Imperial Chelsea Palace 130",
    "description": "Imperial Chelsea Palace 130 is a well-loved destination in London. Guests appreciate the central location, comfortable rooms, and attentive service. Ideal for business stays, weekend breaks, and exploring the city.",
    "lat": 51.653278,
    "lng": 0.141967,
    "address": "30 High Street, London, United Kingdom",
    "price": 855,
    "totalReviews": 17387,
    "averageRating": 4.5
  },
  {
    "name": "Imperial Paddington Boutique Hotel 131",
    "description": "Imperial Paddington Boutique Hotel 131 is a well-loved destination in London. Guests appreciate the central location, comfortable rooms, and attentive service. Ideal for business stays, weekend breaks, and exploring the city.",
    "lat": 51.497235,
    "lng": -0.042115,
    "address": "156 King's Road, London, United Kingdom",
    "price": 576,
    "totalReviews": 5261,
    "averageRating": 3.1
  },
  {
    "name": "Crown Greenwich Rooms 132",
    "description": "Crown Greenwich Rooms 132 is a well-loved destination in London. Guests appreciate the central location, comfortable rooms, and attentive service. Ideal for business stays, weekend breaks, and exploring the city.",
    "lat": 51.665298,
    "lng": 0.137874,
    "address": "22 King's Road, London, United Kingdom",
    "price": 603,
    "totalReviews": 2987,
    "averageRating": 4.5
  },
  {
    "name": "Luxury Paddington Suites 133",
    "description": "Luxury Paddington Suites 133 is a well-loved destination in London. Guests appreciate the central location, comfortable rooms, and attentive service. Ideal for business stays, weekend breaks, and exploring the city.",
    "lat": 51.467301,
    "lng": 0.212046,
    "address": "75 Piccadilly, London, United Kingdom",
    "price": 861,
    "totalReviews": 16686,
    "averageRating": 4.8
  },
  {
    "name": "Imperial London Inn 134",
    "description": "Imperial London Inn 134 is a well-loved destination in London. Guests appreciate the central location, comfortable rooms, and attentive service. Ideal for business stays, weekend breaks, and exploring the city.",
    "lat": 51.613433,
    "lng": 0.127787,
    "address": "171 King's Road, London, United Kingdom",
    "price": 1173,
    "totalReviews": 11614,
    "averageRating": 3.3
  },
  {
    "name": "Golden Islington Plaza Hotel 135",
    "description": "Golden Islington Plaza Hotel 135 is a well-loved destination in London. Guests appreciate the central location, comfortable rooms, and attentive service. Ideal for business stays, weekend breaks, and exploring the city.",
    "lat": 51.682972,
    "lng": -0.212324,
    "address": "7 High Street, London, United Kingdom",
    "price": 775,
    "totalReviews": 19386,
    "averageRating": 3.8
  },
  {
    "name": "Heritage Waterloo Boutique Hotel 136",
    "description": "Heritage Waterloo Boutique Hotel 136 is a well-loved destination in London. Guests appreciate the central location, comfortable rooms, and attentive service. Ideal for business stays, weekend breaks, and exploring the city.",
    "lat": 51.51327,
    "lng": -0.314706,
    "address": "130 Regent Street, London, United Kingdom",
    "price": 278,
    "totalReviews": 14709,
    "averageRating": 4.0
  },
  {
    "name": "Heritage London Apartments 137",
    "description": "Heritage London Apartments 137 is a well-loved destination in London. Guests appreciate the central location, comfortable rooms, and attentive service. Ideal for business stays, weekend breaks, and exploring the city.",
    "lat": 51.35291,
    "lng": -0.124137,
    "address": "8 High Street, London, United Kingdom",
    "price": 433,
    "totalReviews": 13876,
    "averageRating": 4.3
  },
  {
    "name": "Imperial Greenwich Hotel 138",
    "description": "Imperial Greenwich Hotel 138 is a well-loved destination in London. Guests appreciate the central location, comfortable rooms, and attentive service. Ideal for business stays, weekend breaks, and exploring the city.",
    "lat": 51.543889,
    "lng": -0.130616,
    "address": "179 Oxford Street, London, United Kingdom",
    "price": 1170,
    "totalReviews": 18594,
    "averageRating": 2.8
  },
  {
    "name": "Majestic Shoreditch Rooms 139",
    "description": "Majestic Shoreditch Rooms 139 is a well-loved destination in London. Guests appreciate the central location, comfortable rooms, and attentive service. Ideal for business stays, weekend breaks, and exploring the city.",
    "lat": 51.500097,
    "lng": -0.102594,
    "address": "55 Baker Street, London, United Kingdom",
    "price": 941,
    "totalReviews": 14139,
    "averageRating": 4.1
  },
  {
    "name": "City Canary Wharf Residency 140",
    "description": "City Canary Wharf Residency 140 is a well-loved destination in London. Guests appreciate the central location, comfortable rooms, and attentive service. Ideal for business stays, weekend breaks, and exploring the city.",
    "lat": 51.342525,
    "lng": 0.163937,
    "address": "118 Park Lane, London, United Kingdom",
    "price": 607,
    "totalReviews": 10382,
    "averageRating": 3.6
  },
  {
    "name": "Central Shoreditch Boutique Hotel 141",
    "description": "Central Shoreditch Boutique Hotel 141 is a well-loved destination in London. Guests appreciate the central location, comfortable rooms, and attentive service. Ideal for business stays, weekend breaks, and exploring the city.",
    "lat": 51.591553,
    "lng": -0.068536,
    "address": "65 Regent Street, London, United Kingdom",
    "price": 289,
    "totalReviews": 1663,
    "averageRating": 5.0
  },
  {
    "name": "Park Kensington Resort 142",
    "description": "Park Kensington Resort 142 is a well-loved destination in London. Guests appreciate the central location, comfortable rooms, and attentive service. Ideal for business stays, weekend breaks, and exploring the city.",
    "lat": 51.593919,
    "lng": -0.482219,
    "address": "191 High Street, London, United Kingdom",
    "price": 147,
    "totalReviews": 3463,
    "averageRating": 3.0
  },
  {
    "name": "Grand Bridge Suites 143",
    "description": "Grand Bridge Suites 143 is a well-loved destination in London. Guests appreciate the central location, comfortable rooms, and attentive service. Ideal for business stays, weekend breaks, and exploring the city.",
    "lat": 51.305642,
    "lng": -0.256118,
    "address": "143 King's Road, London, United Kingdom",
    "price": 499,
    "totalReviews": 367,
    "averageRating": 2.2
  },
  {
    "name": "Royal Mayfair Lodge 144",
    "description": "Royal Mayfair Lodge 144 is a well-loved destination in London. Guests appreciate the central location, comfortable rooms, and attentive service. Ideal for business stays, weekend breaks, and exploring the city.",
    "lat": 51.533087,
    "lng": -0.276676,
    "address": "37 High Street, London, United Kingdom",
    "price": 831,
    "totalReviews": 7291,
    "averageRating": 2.8
  },
  {
    "name": "Signature Hackney Residency 145",
    "description": "Signature Hackney Residency 145 is a well-loved destination in London. Guests appreciate the central location, comfortable rooms, and attentive service. Ideal for business stays, weekend breaks, and exploring the city.",
    "lat": 51.540207,
    "lng": 0.042508,
    "address": "142 High Street, London, United Kingdom",
    "price": 442,
    "totalReviews": 1683,
    "averageRating": 3.0
  },
  {
    "name": "Regent Canary Wharf Residency 146",
    "description": "Regent Canary Wharf Residency 146 is a well-loved destination in London. Guests appreciate the central location, comfortable rooms, and attentive service. Ideal for business stays, weekend breaks, and exploring the city.",
    "lat": 51.51151,
    "lng": 0.127368,
    "address": "157 Regent Street, London, United Kingdom",
    "price": 1091,
    "totalReviews": 10223,
    "averageRating": 2.4
  },
  {
    "name": "Tower Bridge Suites 147",
    "description": "Tower Bridge Suites 147 is a well-loved destination in London. Guests appreciate the central location, comfortable rooms, and attentive service. Ideal for business stays, weekend breaks, and exploring the city.",
    "lat": 51.497679,
    "lng": -0.227693,
    "address": "61 King's Road, London, United Kingdom",
    "price": 773,
    "totalReviews": 10427,
    "averageRating": 3.3
  },
  {
    "name": "Premier Shoreditch Inn 148",
    "description": "Premier Shoreditch Inn 148 is a well-loved destination in London. Guests appreciate the central location, comfortable rooms, and attentive service. Ideal for business stays, weekend breaks, and exploring the city.",
    "lat": 51.62142,
    "lng": 0.211157,
    "address": "57 Oxford Street, London, United Kingdom",
    "price": 964,
    "totalReviews": 10649,
    "averageRating": 3.7
  },
  {
    "name": "Urban Bloomsbury Suites 149",
    "description": "Urban Bloomsbury Suites 149 is a well-loved destination in London. Guests appreciate the central location, comfortable rooms, and attentive service. Ideal for business stays, weekend breaks, and exploring the city.",
    "lat": 51.586415,
    "lng": 0.179028,
    "address": "11 Regent Street, London, United Kingdom",
    "price": 779,
    "totalReviews": 108,
    "averageRating": 4.6
  },
  {
    "name": "Elite Camden Rooms 150",
    "description": "Elite Camden Rooms 150 is a well-loved destination in London. Guests appreciate the central location, comfortable rooms, and attentive service. Ideal for business stays, weekend breaks, and exploring the city.",
    "lat": 51.60768,
    "lng": -0.298968,
    "address": "123 Baker Street, London, United Kingdom",
    "price": 1008,
    "totalReviews": 4597,
    "averageRating": 4.4
  },
  {
    "name": "Comfort Greenwich Stay 151",
    "description": "Comfort Greenwich Stay 151 is a well-loved destination in London. Guests appreciate the central location, comfortable rooms, and attentive service. Ideal for business stays, weekend breaks, and exploring the city.",
    "lat": 51.534268,
    "lng": -0.098469,
    "address": "13 Park Lane, London, United Kingdom",
    "price": 720,
    "totalReviews": 18802,
    "averageRating": 3.3
  },
  {
    "name": "City Hammersmith Residency 152",
    "description": "City Hammersmith Residency 152 is a well-loved destination in London. Guests appreciate the central location, comfortable rooms, and attentive service. Ideal for business stays, weekend breaks, and exploring the city.",
    "lat": 51.550961,
    "lng": -0.309277,
    "address": "44 Regent Street, London, United Kingdom",
    "price": 838,
    "totalReviews": 6521,
    "averageRating": 4.3
  },
  {
    "name": "Majestic Waterloo Stay 153",
    "description": "Majestic Waterloo Stay 153 is a well-loved destination in London. Guests appreciate the central location, comfortable rooms, and attentive service. Ideal for business stays, weekend breaks, and exploring the city.",
    "lat": 51.688757,
    "lng": 0.115739,
    "address": "99 High Street, London, United Kingdom",
    "price": 992,
    "totalReviews": 4206,
    "averageRating": 2.9
  },
  {
    "name": "Regent Bloomsbury Rooms 154",
    "description": "Regent Bloomsbury Rooms 154 is a well-loved destination in London. Guests appreciate the central location, comfortable rooms, and attentive service. Ideal for business stays, weekend breaks, and exploring the city.",
    "lat": 51.440861,
    "lng": -0.092606,
    "address": "80 Baker Street, London, United Kingdom",
    "price": 625,
    "totalReviews": 9939,
    "averageRating": 3.0
  },
  {
    "name": "Urban Bloomsbury Lodge 155",
    "description": "Urban Bloomsbury Lodge 155 is a well-loved destination in London. Guests appreciate the central location, comfortable rooms, and attentive service. Ideal for business stays, weekend breaks, and exploring the city.",
    "lat": 51.474683,
    "lng": 0.178954,
    "address": "93 Baker Street, London, United Kingdom",
    "price": 169,
    "totalReviews": 5656,
    "averageRating": 3.5
  },
  {
    "name": "Majestic Notting Hill Lodge 156",
    "description": "Majestic Notting Hill Lodge 156 is a well-loved destination in London. Guests appreciate the central location, comfortable rooms, and attentive service. Ideal for business stays, weekend breaks, and exploring the city.",
    "lat": 51.615247,
    "lng": 0.051855,
    "address": "132 Regent Street, London, United Kingdom",
    "price": 704,
    "totalReviews": 16831,
    "averageRating": 3.9
  },
  {
    "name": "Luxury Canary Wharf Apartments 157",
    "description": "Luxury Canary Wharf Apartments 157 is a well-loved destination in London. Guests appreciate the central location, comfortable rooms, and attentive service. Ideal for business stays, weekend breaks, and exploring the city.",
    "lat": 51.348573,
    "lng": -0.481609,
    "address": "44 Regent Street, London, United Kingdom",
    "price": 307,
    "totalReviews": 4803,
    "averageRating": 4.7
  },
  {
    "name": "Grand Greenwich Residency 158",
    "description": "Grand Greenwich Residency 158 is a well-loved destination in London. Guests appreciate the central location, comfortable rooms, and attentive service. Ideal for business stays, weekend breaks, and exploring the city.",
    "lat": 51.69168,
    "lng": -0.468884,
    "address": "148 King's Road, London, United Kingdom",
    "price": 719,
    "totalReviews": 15883,
    "averageRating": 2.9
  },
  {
    "name": "Urban Notting Hill Resort 159",
    "description": "Urban Notting Hill Resort 159 is a well-loved destination in London. Guests appreciate the central location, comfortable rooms, and attentive service. Ideal for business stays, weekend breaks, and exploring the city.",
    "lat": 51.594107,
    "lng": -0.074159,
    "address": "128 Oxford Street, London, United Kingdom",
    "price": 1160,
    "totalReviews": 1238,
    "averageRating": 5.0
  },
  {
    "name": "Signature Mayfair Suites 160",
    "description": "Signature Mayfair Suites 160 is a well-loved destination in London. Guests appreciate the central location, comfortable rooms, and attentive service. Ideal for business stays, weekend breaks, and exploring the city.",
    "lat": 51.330994,
    "lng": 0.16057,
    "address": "71 King's Road, London, United Kingdom",
    "price": 1029,
    "totalReviews": 2418,
    "averageRating": 3.1
  },
  {
    "name": "Comfort Bloomsbury Lodge 161",
    "description": "Comfort Bloomsbury Lodge 161 is a well-loved destination in London. Guests appreciate the central location, comfortable rooms, and attentive service. Ideal for business stays, weekend breaks, and exploring the city.",
    "lat": 51.42869,
    "lng": 0.092278,
    "address": "185 Baker Street, London, United Kingdom",
    "price": 187,
    "totalReviews": 793,
    "averageRating": 4.4
  },
  {
    "name": "Tower Westminster Apartments 162",
    "description": "Tower Westminster Apartments 162 is a well-loved destination in London. Guests appreciate the central location, comfortable rooms, and attentive service. Ideal for business stays, weekend breaks, and exploring the city.",
    "lat": 51.522535,
    "lng": 0.193657,
    "address": "17 Oxford Street, London, United Kingdom",
    "price": 613,
    "totalReviews": 14966,
    "averageRating": 3.2
  },
  {
    "name": "Urban Mayfair Suites 163",
    "description": "Urban Mayfair Suites 163 is a well-loved destination in London. Guests appreciate the central location, comfortable rooms, and attentive service. Ideal for business stays, weekend breaks, and exploring the city.",
    "lat": 51.45325,
    "lng": -0.352824,
    "address": "16 Regent Street, London, United Kingdom",
    "price": 1073,
    "totalReviews": 13973,
    "averageRating": 3.1
  },
  {
    "name": "Signature Hackney Inn 164",
    "description": "Signature Hackney Inn 164 is a well-loved destination in London. Guests appreciate the central location, comfortable rooms, and attentive service. Ideal for business stays, weekend breaks, and exploring the city.",
    "lat": 51.454875,
    "lng": -0.194977,
    "address": "130 High Street, London, United Kingdom",
    "price": 534,
    "totalReviews": 18118,
    "averageRating": 2.1
  },
  {
    "name": "Grand London Suites 165",
    "description": "Grand London Suites 165 is a well-loved destination in London. Guests appreciate the central location, comfortable rooms, and attentive service. Ideal for business stays, weekend breaks, and exploring the city.",
    "lat": 51.397538,
    "lng": 0.128315,
    "address": "25 Oxford Street, London, United Kingdom",
    "price": 544,
    "totalReviews": 5213,
    "averageRating": 3.7
  },
  {
    "name": "Heritage Shoreditch Boutique Hotel 166",
    "description": "Heritage Shoreditch Boutique Hotel 166 is a well-loved destination in London. Guests appreciate the central location, comfortable rooms, and attentive service. Ideal for business stays, weekend breaks, and exploring the city.",
    "lat": 51.570011,
    "lng": 0.079071,
    "address": "147 Piccadilly, London, United Kingdom",
    "price": 1069,
    "totalReviews": 2104,
    "averageRating": 3.3
  },
  {
    "name": "Urban Bridge Palace 167",
    "description": "Urban Bridge Palace 167 is a well-loved destination in London. Guests appreciate the central location, comfortable rooms, and attentive service. Ideal for business stays, weekend breaks, and exploring the city.",
    "lat": 51.547399,
    "lng": -0.235414,
    "address": "95 Oxford Street, London, United Kingdom",
    "price": 804,
    "totalReviews": 14725,
    "averageRating": 4.7
  },
  {
    "name": "Central Islington Palace 168",
    "description": "Central Islington Palace 168 is a well-loved destination in London. Guests appreciate the central location, comfortable rooms, and attentive service. Ideal for business stays, weekend breaks, and exploring the city.",
    "lat": 51.469838,
    "lng": -0.246195,
    "address": "118 Park Lane, London, United Kingdom",
    "price": 365,
    "totalReviews": 2102,
    "averageRating": 4.9
  },
  {
    "name": "City Greenwich Boutique Hotel 169",
    "description": "City Greenwich Boutique Hotel 169 is a well-loved destination in London. Guests appreciate the central location, comfortable rooms, and attentive service. Ideal for business stays, weekend breaks, and exploring the city.",
    "lat": 51.557265,
    "lng": -0.204611,
    "address": "54 High Street, London, United Kingdom",
    "price": 1110,
    "totalReviews": 18844,
    "averageRating": 2.7
  },
  {
    "name": "Premier London Rooms 170",
    "description": "Premier London Rooms 170 is a well-loved destination in London. Guests appreciate the central location, comfortable rooms, and attentive service. Ideal for business stays, weekend breaks, and exploring the city.",
    "lat": 51.358386,
    "lng": -0.433499,
    "address": "148 King's Road, London, United Kingdom",
    "price": 801,
    "totalReviews": 16114,
    "averageRating": 2.5
  },
  {
    "name": "Tower Bloomsbury Apartments 171",
    "description": "Tower Bloomsbury Apartments 171 is a well-loved destination in London. Guests appreciate the central location, comfortable rooms, and attentive service. Ideal for business stays, weekend breaks, and exploring the city.",
    "lat": 51.558809,
    "lng": -0.102258,
    "address": "38 Park Lane, London, United Kingdom",
    "price": 273,
    "totalReviews": 16889,
    "averageRating": 3.8
  },
  {
    "name": "Signature Canary Wharf Hotel 172",
    "description": "Signature Canary Wharf Hotel 172 is a well-loved destination in London. Guests appreciate the central location, comfortable rooms, and attentive service. Ideal for business stays, weekend breaks, and exploring the city.",
    "lat": 51.504195,
    "lng": -0.072078,
    "address": "124 Piccadilly, London, United Kingdom",
    "price": 264,
    "totalReviews": 19005,
    "averageRating": 4.1
  },
  {
    "name": "Park Hammersmith Suites 173",
    "description": "Park Hammersmith Suites 173 is a well-loved destination in London. Guests appreciate the central location, comfortable rooms, and attentive service. Ideal for business stays, weekend breaks, and exploring the city.",
    "lat": 51.516567,
    "lng": -0.180687,
    "address": "150 Park Lane, London, United Kingdom",
    "price": 1036,
    "totalReviews": 6919,
    "averageRating": 2.9
  },
  {
    "name": "Comfort Paddington Residency 174",
    "description": "Comfort Paddington Residency 174 is a well-loved destination in London. Guests appreciate the central location, comfortable rooms, and attentive service. Ideal for business stays, weekend breaks, and exploring the city.",
    "lat": 51.367787,
    "lng": 0.132581,
    "address": "156 Regent Street, London, United Kingdom",
    "price": 446,
    "totalReviews": 14825,
    "averageRating": 2.8
  },
  {
    "name": "Elite Shoreditch Stay 175",
    "description": "Elite Shoreditch Stay 175 is a well-loved destination in London. Guests appreciate the central location, comfortable rooms, and attentive service. Ideal for business stays, weekend breaks, and exploring the city.",
    "lat": 51.60374,
    "lng": 0.069208,
    "address": "82 High Street, London, United Kingdom",
    "price": 369,
    "totalReviews": 14496,
    "averageRating": 4.6
  },
  {
    "name": "Majestic Camden Inn 176",
    "description": "Majestic Camden Inn 176 is a well-loved destination in London. Guests appreciate the central location, comfortable rooms, and attentive service. Ideal for business stays, weekend breaks, and exploring the city.",
    "lat": 51.697872,
    "lng": -0.376789,
    "address": "83 High Street, London, United Kingdom",
    "price": 291,
    "totalReviews": 5483,
    "averageRating": 3.7
  },
  {
    "name": "Crown Greenwich Stay 177",
    "description": "Crown Greenwich Stay 177 is a well-loved destination in London. Guests appreciate the central location, comfortable rooms, and attentive service. Ideal for business stays, weekend breaks, and exploring the city.",
    "lat": 51.60929,
    "lng": 0.20327,
    "address": "10 King's Road, London, United Kingdom",
    "price": 587,
    "totalReviews": 3009,
    "averageRating": 4.8
  },
  {
    "name": "Heritage Paddington Stay 178",
    "description": "Heritage Paddington Stay 178 is a well-loved destination in London. Guests appreciate the central location, comfortable rooms, and attentive service. Ideal for business stays, weekend breaks, and exploring the city.",
    "lat": 51.359204,
    "lng": -0.114617,
    "address": "7 Baker Street, London, United Kingdom",
    "price": 894,
    "totalReviews": 10392,
    "averageRating": 2.6
  },
  {
    "name": "Plaza Islington Stay 179",
    "description": "Plaza Islington Stay 179 is a well-loved destination in London. Guests appreciate the central location, comfortable rooms, and attentive service. Ideal for business stays, weekend breaks, and exploring the city.",
    "lat": 51.434625,
    "lng": -0.058674,
    "address": "50 Piccadilly, London, United Kingdom",
    "price": 409,
    "totalReviews": 14651,
    "averageRating": 2.8
  },
  {
    "name": "Signature Mayfair Apartments 180",
    "description": "Signature Mayfair Apartments 180 is a well-loved destination in London. Guests appreciate the central location, comfortable rooms, and attentive service. Ideal for business stays, weekend breaks, and exploring the city.",
    "lat": 51.647326,
    "lng": -0.175798,
    "address": "74 King's Road, London, United Kingdom",
    "price": 315,
    "totalReviews": 6805,
    "averageRating": 2.4
  },
  {
    "name": "Central Westminster Hotel 181",
    "description": "Central Westminster Hotel 181 is a well-loved destination in London. Guests appreciate the central location, comfortable rooms, and attentive service. Ideal for business stays, weekend breaks, and exploring the city.",
    "lat": 51.600523,
    "lng": -0.032333,
    "address": "43 Oxford Street, London, United Kingdom",
    "price": 943,
    "totalReviews": 125,
    "averageRating": 3.9
  },
  {
    "name": "Royal Chelsea Lodge 182",
    "description": "Royal Chelsea Lodge 182 is a well-loved destination in London. Guests appreciate the central location, comfortable rooms, and attentive service. Ideal for business stays, weekend breaks, and exploring the city.",
    "lat": 51.485259,
    "lng": -0.166708,
    "address": "177 Piccadilly, London, United Kingdom",
    "price": 1111,
    "totalReviews": 3249,
    "averageRating": 3.5
  },
  {
    "name": "City Notting Hill Hotel 183",
    "description": "City Notting Hill Hotel 183 is a well-loved destination in London. Guests appreciate the central location, comfortable rooms, and attentive service. Ideal for business stays, weekend breaks, and exploring the city.",
    "lat": 51.55177,
    "lng": -0.210963,
    "address": "123 Baker Street, London, United Kingdom",
    "price": 686,
    "totalReviews": 1046,
    "averageRating": 2.7
  },
  {
    "name": "City Covent Garden Lodge 184",
    "description": "City Covent Garden Lodge 184 is a well-loved destination in London. Guests appreciate the central location, comfortable rooms, and attentive service. Ideal for business stays, weekend breaks, and exploring the city.",
    "lat": 51.494201,
    "lng": -0.277251,
    "address": "178 Piccadilly, London, United Kingdom",
    "price": 379,
    "totalReviews": 4175,
    "averageRating": 4.6
  },
  {
    "name": "Urban Waterloo Resort 185",
    "description": "Urban Waterloo Resort 185 is a well-loved destination in London. Guests appreciate the central location, comfortable rooms, and attentive service. Ideal for business stays, weekend breaks, and exploring the city.",
    "lat": 51.623773,
    "lng": 0.013656,
    "address": "154 High Street, London, United Kingdom",
    "price": 835,
    "totalReviews": 9511,
    "averageRating": 3.0
  },
  {
    "name": "Heritage Hammersmith Resort 186",
    "description": "Heritage Hammersmith Resort 186 is a well-loved destination in London. Guests appreciate the central location, comfortable rooms, and attentive service. Ideal for business stays, weekend breaks, and exploring the city.",
    "lat": 51.339608,
    "lng": -0.298373,
    "address": "74 King's Road, London, United Kingdom",
    "price": 556,
    "totalReviews": 9136,
    "averageRating": 4.9
  },
  {
    "name": "Central Canary Wharf Lodge 187",
    "description": "Central Canary Wharf Lodge 187 is a well-loved destination in London. Guests appreciate the central location, comfortable rooms, and attentive service. Ideal for business stays, weekend breaks, and exploring the city.",
    "lat": 51.545143,
    "lng": -0.439532,
    "address": "123 Piccadilly, London, United Kingdom",
    "price": 825,
    "totalReviews": 5343,
    "averageRating": 4.4
  },
  {
    "name": "Comfort Soho Rooms 188",
    "description": "Comfort Soho Rooms 188 is a well-loved destination in London. Guests appreciate the central location, comfortable rooms, and attentive service. Ideal for business stays, weekend breaks, and exploring the city.",
    "lat": 51.688293,
    "lng": -0.499824,
    "address": "27 High Street, London, United Kingdom",
    "price": 95,
    "totalReviews": 14322,
    "averageRating": 2.8
  },
  {
    "name": "Grand Westminster Suites 189",
    "description": "Grand Westminster Suites 189 is a well-loved destination in London. Guests appreciate the central location, comfortable rooms, and attentive service. Ideal for business stays, weekend breaks, and exploring the city.",
    "lat": 51.531359,
    "lng": 0.178707,
    "address": "9 Regent Street, London, United Kingdom",
    "price": 1069,
    "totalReviews": 18236,
    "averageRating": 4.4
  },
  {
    "name": "Premier Hackney Suites 190",
    "description": "Premier Hackney Suites 190 is a well-loved destination in London. Guests appreciate the central location, comfortable rooms, and attentive service. Ideal for business stays, weekend breaks, and exploring the city.",
    "lat": 51.372397,
    "lng": -0.405785,
    "address": "50 Regent Street, London, United Kingdom",
    "price": 200,
    "totalReviews": 2173,
    "averageRating": 4.3
  },
  {
    "name": "Plaza London Apartments 191",
    "description": "Plaza London Apartments 191 is a well-loved destination in London. Guests appreciate the central location, comfortable rooms, and attentive service. Ideal for business stays, weekend breaks, and exploring the city.",
    "lat": 51.339204,
    "lng": -0.247366,
    "address": "94 Oxford Street, London, United Kingdom",
    "price": 910,
    "totalReviews": 12770,
    "averageRating": 2.8
  },
  {
    "name": "Plaza Notting Hill Lodge 192",
    "description": "Plaza Notting Hill Lodge 192 is a well-loved destination in London. Guests appreciate the central location, comfortable rooms, and attentive service. Ideal for business stays, weekend breaks, and exploring the city.",
    "lat": 51.516629,
    "lng": -0.07295,
    "address": "174 Baker Street, London, United Kingdom",
    "price": 882,
    "totalReviews": 19098,
    "averageRating": 3.9
  },
  {
    "name": "Luxury Bloomsbury Palace 193",
    "description": "Luxury Bloomsbury Palace 193 is a well-loved destination in London. Guests appreciate the central location, comfortable rooms, and attentive service. Ideal for business stays, weekend breaks, and exploring the city.",
    "lat": 51.567783,
    "lng": -0.360584,
    "address": "35 High Street, London, United Kingdom",
    "price": 597,
    "totalReviews": 9450,
    "averageRating": 4.7
  },
  {
    "name": "Urban Shoreditch Stay 194",
    "description": "Urban Shoreditch Stay 194 is a well-loved destination in London. Guests appreciate the central location, comfortable rooms, and attentive service. Ideal for business stays, weekend breaks, and exploring the city.",
    "lat": 51.418245,
    "lng": -0.385866,
    "address": "169 Piccadilly, London, United Kingdom",
    "price": 803,
    "totalReviews": 2919,
    "averageRating": 4.3
  },
  {
    "name": "Tower Hammersmith Resort 195",
    "description": "Tower Hammersmith Resort 195 is a well-loved destination in London. Guests appreciate the central location, comfortable rooms, and attentive service. Ideal for business stays, weekend breaks, and exploring the city.",
    "lat": 51.611239,
    "lng": 0.008919,
    "address": "135 Park Lane, London, United Kingdom",
    "price": 875,
    "totalReviews": 5762,
    "averageRating": 3.9
  },
  {
    "name": "Signature Canary Wharf Residency 196",
    "description": "Signature Canary Wharf Residency 196 is a well-loved destination in London. Guests appreciate the central location, comfortable rooms, and attentive service. Ideal for business stays, weekend breaks, and exploring the city.",
    "lat": 51.615569,
    "lng": -0.100032,
    "address": "175 Baker Street, London, United Kingdom",
    "price": 1044,
    "totalReviews": 12653,
    "averageRating": 5.0
  },
  {
    "name": "Imperial Bridge Hotel 197",
    "description": "Imperial Bridge Hotel 197 is a well-loved destination in London. Guests appreciate the central location, comfortable rooms, and attentive service. Ideal for business stays, weekend breaks, and exploring the city.",
    "lat": 51.694274,
    "lng": -0.462704,
    "address": "105 Piccadilly, London, United Kingdom",
    "price": 1070,
    "totalReviews": 8002,
    "averageRating": 4.7
  },
  {
    "name": "Grand Soho Residency 198",
    "description": "Grand Soho Residency 198 is a well-loved destination in London. Guests appreciate the central location, comfortable rooms, and attentive service. Ideal for business stays, weekend breaks, and exploring the city.",
    "lat": 51.655013,
    "lng": 0.027286,
    "address": "126 Piccadilly, London, United Kingdom",
    "price": 375,
    "totalReviews": 1831,
    "averageRating": 4.9
  },
  {
    "name": "Premier Chelsea Boutique Hotel 199",
    "description": "Premier Chelsea Boutique Hotel 199 is a well-loved destination in London. Guests appreciate the central location, comfortable rooms, and attentive service. Ideal for business stays, weekend breaks, and exploring the city.",
    "lat": 51.349265,
    "lng": -0.416213,
    "address": "83 Oxford Street, London, United Kingdom",
    "price": 936,
    "totalReviews": 17220,
    "averageRating": 2.0
  },
  {
    "name": "Majestic Canary Wharf Inn 200",
    "description": "Majestic Canary Wharf Inn 200 is a well-loved destination in London. Guests appreciate the central location, comfortable rooms, and attentive service. Ideal for business stays, weekend breaks, and exploring the city.",
    "lat": 51.680584,
    "lng": -0.110013,
    "address": "193 Oxford Street, London, United Kingdom",
    "price": 940,
    "totalReviews": 5240,
    "averageRating": 2.3
  },
  {
    "name": "Regent Canary Wharf Stay 201",
    "description": "Regent Canary Wharf Stay 201 is a well-loved destination in London. Guests appreciate the central location, comfortable rooms, and attentive service. Ideal for business stays, weekend breaks, and exploring the city.",
    "lat": 51.645972,
    "lng": -0.38733,
    "address": "74 Oxford Street, London, United Kingdom",
    "price": 301,
    "totalReviews": 17395,
    "averageRating": 5.0
  },
  {
    "name": "Urban Canary Wharf Resort 202",
    "description": "Urban Canary Wharf Resort 202 is a well-loved destination in London. Guests appreciate the central location, comfortable rooms, and attentive service. Ideal for business stays, weekend breaks, and exploring the city.",
    "lat": 51.430048,
    "lng": 0.231992,
    "address": "7 Park Lane, London, United Kingdom",
    "price": 589,
    "totalReviews": 17737,
    "averageRating": 4.3
  },
  {
    "name": "Central Chelsea Inn 203",
    "description": "Central Chelsea Inn 203 is a well-loved destination in London. Guests appreciate the central location, comfortable rooms, and attentive service. Ideal for business stays, weekend breaks, and exploring the city.",
    "lat": 51.412601,
    "lng": 0.044368,
    "address": "196 King's Road, London, United Kingdom",
    "price": 251,
    "totalReviews": 67,
    "averageRating": 2.2
  },
  {
    "name": "Majestic Islington Inn 204",
    "description": "Majestic Islington Inn 204 is a well-loved destination in London. Guests appreciate the central location, comfortable rooms, and attentive service. Ideal for business stays, weekend breaks, and exploring the city.",
    "lat": 51.595674,
    "lng": -0.094509,
    "address": "102 King's Road, London, United Kingdom",
    "price": 471,
    "totalReviews": 17363,
    "averageRating": 3.3
  },
  {
    "name": "Signature Kensington Stay 205",
    "description": "Signature Kensington Stay 205 is a well-loved destination in London. Guests appreciate the central location, comfortable rooms, and attentive service. Ideal for business stays, weekend breaks, and exploring the city.",
    "lat": 51.531078,
    "lng": -0.364776,
    "address": "136 King's Road, London, United Kingdom",
    "price": 500,
    "totalReviews": 1140,
    "averageRating": 2.6
  },
  {
    "name": "Urban Paddington Hotel 206",
    "description": "Urban Paddington Hotel 206 is a well-loved destination in London. Guests appreciate the central location, comfortable rooms, and attentive service. Ideal for business stays, weekend breaks, and exploring the city.",
    "lat": 51.614502,
    "lng": -0.400106,
    "address": "137 Piccadilly, London, United Kingdom",
    "price": 269,
    "totalReviews": 12682,
    "averageRating": 2.8
  },
  {
    "name": "Premier Westminster Boutique Hotel 207",
    "description": "Premier Westminster Boutique Hotel 207 is a well-loved destination in London. Guests appreciate the central location, comfortable rooms, and attentive service. Ideal for business stays, weekend breaks, and exploring the city.",
    "lat": 51.481558,
    "lng": -0.137365,
    "address": "63 Regent Street, London, United Kingdom",
    "price": 101,
    "totalReviews": 2586,
    "averageRating": 3.2
  },
  {
    "name": "Imperial Hammersmith Resort 208",
    "description": "Imperial Hammersmith Resort 208 is a well-loved destination in London. Guests appreciate the central location, comfortable rooms, and attentive service. Ideal for business stays, weekend breaks, and exploring the city.",
    "lat": 51.461809,
    "lng": 0.094181,
    "address": "93 High Street, London, United Kingdom",
    "price": 753,
    "totalReviews": 14664,
    "averageRating": 4.2
  },
  {
    "name": "Comfort Southbank Apartments 209",
    "description": "Comfort Southbank Apartments 209 is a well-loved destination in London. Guests appreciate the central location, comfortable rooms, and attentive service. Ideal for business stays, weekend breaks, and exploring the city.",
    "lat": 51.688703,
    "lng": -0.435465,
    "address": "52 Baker Street, London, United Kingdom",
    "price": 765,
    "totalReviews": 11866,
    "averageRating": 4.2
  },
  {
    "name": "Park Camden Rooms 210",
    "description": "Park Camden Rooms 210 is a well-loved destination in London. Guests appreciate the central location, comfortable rooms, and attentive service. Ideal for business stays, weekend breaks, and exploring the city.",
    "lat": 51.616027,
    "lng": -0.018651,
    "address": "17 High Street, London, United Kingdom",
    "price": 446,
    "totalReviews": 11797,
    "averageRating": 4.7
  },
  {
    "name": "Central Greenwich Plaza Hotel 211",
    "description": "Central Greenwich Plaza Hotel 211 is a well-loved destination in London. Guests appreciate the central location, comfortable rooms, and attentive service. Ideal for business stays, weekend breaks, and exploring the city.",
    "lat": 51.558162,
    "lng": -0.433424,
    "address": "200 Baker Street, London, United Kingdom",
    "price": 668,
    "totalReviews": 10090,
    "averageRating": 4.2
  },
  {
    "name": "Royal Greenwich Boutique Hotel 212",
    "description": "Royal Greenwich Boutique Hotel 212 is a well-loved destination in London. Guests appreciate the central location, comfortable rooms, and attentive service. Ideal for business stays, weekend breaks, and exploring the city.",
    "lat": 51.558866,
    "lng": 0.100578,
    "address": "32 High Street, London, United Kingdom",
    "price": 605,
    "totalReviews": 10571,
    "averageRating": 2.5
  },
  {
    "name": "Luxury Bloomsbury Apartments 213",
    "description": "Luxury Bloomsbury Apartments 213 is a well-loved destination in London. Guests appreciate the central location, comfortable rooms, and attentive service. Ideal for business stays, weekend breaks, and exploring the city.",
    "lat": 51.602593,
    "lng": -0.228481,
    "address": "148 High Street, London, United Kingdom",
    "price": 1157,
    "totalReviews": 11237,
    "averageRating": 3.0
  },
  {
    "name": "Luxury Kensington Plaza Hotel 214",
    "description": "Luxury Kensington Plaza Hotel 214 is a well-loved destination in London. Guests appreciate the central location, comfortable rooms, and attentive service. Ideal for business stays, weekend breaks, and exploring the city.",
    "lat": 51.619091,
    "lng": -0.460337,
    "address": "193 King's Road, London, United Kingdom",
    "price": 1051,
    "totalReviews": 10486,
    "averageRating": 2.3
  },
  {
    "name": "Tower Paddington Inn 215",
    "description": "Tower Paddington Inn 215 is a well-loved destination in London. Guests appreciate the central location, comfortable rooms, and attentive service. Ideal for business stays, weekend breaks, and exploring the city.",
    "lat": 51.410366,
    "lng": -0.03812,
    "address": "91 Regent Street, London, United Kingdom",
    "price": 361,
    "totalReviews": 4891,
    "averageRating": 4.1
  },
  {
    "name": "City Mayfair Suites 216",
    "description": "City Mayfair Suites 216 is a well-loved destination in London. Guests appreciate the central location, comfortable rooms, and attentive service. Ideal for business stays, weekend breaks, and exploring the city.",
    "lat": 51.301094,
    "lng": -0.24008,
    "address": "63 Piccadilly, London, United Kingdom",
    "price": 1134,
    "totalReviews": 13005,
    "averageRating": 4.2
  },